{
    "data": [
        {
            "latitude": -6.849895,
            "longitude": 107.51833,
            "type": "venue",
            "distance": 0.725,
            "name": "Cilame",
            "number": null,
            "postal_code": null,
            "street": null,
            "confidence": 0.6,
            "region": "West Java",
            "region_code": "JR",
            "county": "Cimahi",
            "locality": "Cimahi",
            "administrative_area": null,
            "neighbourhood": null,
            "country": "Indonesia",
            "country_code": "IDN",
            "continent": "Asia",
            "label": "Cilame, Cimahi, Indonesia"
        }
    ]
}
{
    "data": [
        {
            "latitude": 40.763841,
            "longitude": -73.972972,
            "type": "venue",
            "distance": 0,
            "name": "Apple Store",
            "number": "767",
            "postal_code": "10153",
            "street": "5th Avenue",
            "confidence": 1,
            "region": "New York",
            "region_code": "NY",
            "county": "New York County",
            "locality": "New York",
            "administrative_area": null,
            "neighbourhood": "Midtown East",
            "country": "United States",
            "country_code": "USA",
            "continent": "North America",
            "label": "Apple Store, New York, NY, USA"
        },
        {
            "latitude": 40.763841,
            "longitude": -73.972972,
            "type": "address",
            "distance": 0,
            "name": "767 5th Avenue",
            "number": "767",
            "postal_code": "10153",
            "street": "5th Avenue",
            "confidence": 1,
            "region": "New York",
            "region_code": "NY",
            "county": "New York County",
            "locality": "New York",
            "administrative_area": null,
            "neighbourhood": "Midtown East",
            "country": "United States",
            "country_code": "USA",
            "continent": "North America",
            "label": "767 5th Avenue, New York, NY, USA"
        },
        {
            "latitude": 40.763554,
            "longitude": -73.972839,
            "type": "address",
            "distance": 0.034,
            "name": "767 5 Ave",
            "number": "767",
            "postal_code": "10153",
            "street": "5 Ave",
            "confidence": 0.8,
            "region": "New York",
            "region_code": "NY",
            "county": "New York County",
            "locality": "New York",
            "administrative_area": null,
            "neighbourhood": "Midtown East",
            "country": "United States",
            "country_code": "USA",
            "continent": "North America",
            "label": "767 5 Ave, New York, NY, USA"
        },
        {
            "latitude": 40.764161,
            "longitude": -73.972967,
            "type": "venue",
            "distance": 0.035,
            "name": "USPS",
            "number": null,
            "postal_code": null,
            "street": null,
            "confidence": 0.8,
            "region": "New York",
            "region_code": "NY",
            "county": "New York County",
            "locality": "New York",
            "administrative_area": null,
            "neighbourhood": "Midtown East",
            "country": "United States",
            "country_code": "USA",
            "continent": "North America",
            "label": "USPS, New York, NY, USA"
        },
        {
            "latitude": 40.763528,
            "longitude": -73.972801,
            "type": "venue",
            "distance": 0.038,
            "name": "Fao",
            "number": "767",
            "postal_code": null,
            "street": "5th Avenue",
            "confidence": 0.8,
            "region": "New York",
            "region_code": "NY",
            "county": "New York County",
            "locality": "New York",
            "administrative_area": null,
            "neighbourhood": "Midtown East",
            "country": "United States",
            "country_code": "USA",
            "continent": "North America",
            "label": "Fao, New York, NY, USA"
        },
        {
            "latitude": 40.76389,
            "longitude": -73.9725,
            "type": "venue",
            "distance": 0.04,
            "name": "Delmonico Plaza",
            "number": null,
            "postal_code": null,
            "street": null,
            "confidence": 0.8,
            "region": "New York",
            "region_code": "NY",
            "county": "New York County",
            "locality": "New York",
            "administrative_area": null,
            "neighbourhood": "Midtown East",
            "country": "United States",
            "country_code": "USA",
            "continent": "North America",
            "label": "Delmonico Plaza, New York, NY, USA"
        },
        {
            "latitude": 40.763642,
            "longitude": -73.972516,
            "type": "venue",
            "distance": 0.044,
            "name": "General Motors Building",
            "number": "767",
            "postal_code": null,
            "street": "5th Avenue",
            "confidence": 0.8,
            "region": "New York",
            "region_code": "NY",
            "county": "New York County",
            "locality": "New York",
            "administrative_area": null,
            "neighbourhood": "Midtown East",
            "country": "United States",
            "country_code": "USA",
            "continent": "North America",
            "label": "General Motors Building, New York, NY, USA"
        },
        {
            "latitude": 40.764209,
            "longitude": -73.97261,
            "type": "address",
            "distance": 0.051,
            "name": "1 East 59th Street",
            "number": "1",
            "postal_code": "10022",
            "street": "East 59th Street",
            "confidence": 0.8,
            "region": "New York",
            "region_code": "NY",
            "county": "New York County",
            "locality": "New York",
            "administrative_area": null,
            "neighbourhood": "Upper East Side",
            "country": "United States",
            "country_code": "USA",
            "continent": "North America",
            "label": "1 East 59th Street, New York, NY, USA"
        },
        {
            "latitude": 40.764041,
            "longitude": -73.973626,
            "type": "venue",
            "distance": 0.06,
            "name": "Pulitzer Fountain",
            "number": null,
            "postal_code": null,
            "street": null,
            "confidence": 0.8,
            "region": "New York",
            "region_code": "NY",
            "county": "New York County",
            "locality": "New York",
            "administrative_area": null,
            "neighbourhood": "Midtown West",
            "country": "United States",
            "country_code": "USA",
            "continent": "North America",
            "label": "Pulitzer Fountain, New York, NY, USA"
        },
        {
            "latitude": 40.764088,
            "longitude": -73.972325,
            "type": "address",
            "distance": 0.061,
            "name": "5 E 59 St",
            "number": "5",
            "postal_code": "10022",
            "street": "E 59 St",
            "confidence": 0.8,
            "region": "New York",
            "region_code": "NY",
            "county": "New York County",
            "locality": "New York",
            "administrative_area": null,
            "neighbourhood": "Upper East Side",
            "country": "United States",
            "country_code": "USA",
            "continent": "North America",
            "label": "5 E 59 St, New York, NY, USA"
        }
    ]
}